{
"type": "FeatureCollection",
"name": "benzinske_postaje",
"crs": { "type": "name", "properties": { "name": "urn:ogc:def:crs:OGC:1.3:CRS84" } },
"features": [
{ "type": "Feature", "properties": { "OBJECTID_1": 1, "OBJECTID": 1, "NAZIV": "INA", "ADRESA": "ALEJA GRADA BOLONJE 68" }, "geometry": { "type": "Point", "coordinates": [ 15.87514186746926, 45.813876113200003 ] } },
{ "type": "Feature", "properties": { "OBJECTID_1": 2, "OBJECTID": 2, "NAZIV": "INA", "ADRESA": "ILICA 419" }, "geometry": { "type": "Point", "coordinates": [ 15.908528514226404, 45.812339274661909 ] } },
{ "type": "Feature", "properties": { "OBJECTID_1": 3, "OBJECTID": 3, "NAZIV": "INA", "ADRESA": "ILICA 278" }, "geometry": { "type": "Point", "coordinates": [ 15.931862697375717, 45.814604378793042 ] } },
{ "type": "Feature", "properties": { "OBJECTID_1": 4, "OBJECTID": 4, "NAZIV": "INA", "ADRESA": "KSAVERSKA CESTA 2F" }, "geometry": { "type": "Point", "coordinates": [ 15.978355114228787, 45.833513495250777 ] } },
{ "type": "Feature", "properties": { "OBJECTID_1": 5, "OBJECTID": 5, "NAZIV": "INA", "ADRESA": "TRG JOSIPA LANGA 13" }, "geometry": { "type": "Point", "coordinates": [ 15.981874654182787, 45.814673081841264 ] } },
{ "type": "Feature", "properties": { "OBJECTID_1": 6, "OBJECTID": 6, "NAZIV": "INA", "ADRESA": "BUKOVAČKA CESTA 2" }, "geometry": { "type": "Point", "coordinates": [ 16.01320789264151, 45.819428037737602 ] } },
{ "type": "Feature", "properties": { "OBJECTID_1": 7, "OBJECTID": 7, "NAZIV": "INA", "ADRESA": "MAKSIMIRSKA CESTA 150" }, "geometry": { "type": "Point", "coordinates": [ 16.030338227150633, 45.822363500153443 ] } },
{ "type": "Feature", "properties": { "OBJECTID_1": 8, "OBJECTID": 8, "NAZIV": "INA", "ADRESA": "MAKSIMIRSKA CESTA 131" }, "geometry": { "type": "Point", "coordinates": [ 16.030017000448929, 45.823107081294971 ] } },
{ "type": "Feature", "properties": { "OBJECTID_1": 9, "OBJECTID": 9, "NAZIV": "INA", "ADRESA": "DANKOVEČKA ULICA 2" }, "geometry": { "type": "Point", "coordinates": [ 16.056327393862812, 45.830038649755565 ] } },
{ "type": "Feature", "properties": { "OBJECTID_1": 10, "OBJECTID": 10, "NAZIV": "INA", "ADRESA": "ZAGREBAČKA CESTA 38" }, "geometry": { "type": "Point", "coordinates": [ 16.098844435441411, 45.828236862228522 ] } },
{ "type": "Feature", "properties": { "OBJECTID_1": 11, "OBJECTID": 11, "NAZIV": "INA", "ADRESA": "ZAGREBAČKA CESTA 19" }, "geometry": { "type": "Point", "coordinates": [ 16.105532435579583, 45.827393462272859 ] } },
{ "type": "Feature", "properties": { "OBJECTID_1": 12, "OBJECTID": 12, "NAZIV": "INA", "ADRESA": "SELSKA CESTA 16" }, "geometry": { "type": "Point", "coordinates": [ 16.142817933952298, 45.825478995978813 ] } },
{ "type": "Feature", "properties": { "OBJECTID_1": 13, "OBJECTID": 13, "NAZIV": "INA", "ADRESA": "SLAVONSKA AVENIJA 25" }, "geometry": { "type": "Point", "coordinates": [ 16.084486489561431, 45.805388283615521 ] } },
{ "type": "Feature", "properties": { "OBJECTID_1": 14, "OBJECTID": 14, "NAZIV": "INA", "ADRESA": "SLAVONSKA AVENIJA 54" }, "geometry": { "type": "Point", "coordinates": [ 16.059039343205381, 45.801120720597055 ] } },
{ "type": "Feature", "properties": { "OBJECTID_1": 15, "OBJECTID": 15, "NAZIV": "INA", "ADRESA": "SLAVONSKA AVENIJA 7A" }, "geometry": { "type": "Point", "coordinates": [ 16.037810108993639, 45.798644970726166 ] } },
{ "type": "Feature", "properties": { "OBJECTID_1": 16, "OBJECTID": 16, "NAZIV": "INA", "ADRESA": "ULICA MARIJANA ĆAVIĆA 2" }, "geometry": { "type": "Point", "coordinates": [ 16.034731023219226, 45.804315211429369 ] } },
{ "type": "Feature", "properties": { "OBJECTID_1": 17, "OBJECTID": 17, "NAZIV": "INA", "ADRESA": "ULICA VJEKOSLAVA HEINZELA 63" }, "geometry": { "type": "Point", "coordinates": [ 16.010354753553088, 45.803520295811204 ] } },
{ "type": "Feature", "properties": { "OBJECTID_1": 18, "OBJECTID": 18, "NAZIV": "INA", "ADRESA": "PLANINSKA ULICA 2D" }, "geometry": { "type": "Point", "coordinates": [ 16.011366143948045, 45.808469217612831 ] } },
{ "type": "Feature", "properties": { "OBJECTID_1": 19, "OBJECTID": 19, "NAZIV": "INA", "ADRESA": "AVENIJA MARINA DRŽIĆA 1B" }, "geometry": { "type": "Point", "coordinates": [ 15.99342306539191, 45.80546352261473 ] } },
{ "type": "Feature", "properties": { "OBJECTID_1": 20, "OBJECTID": 20, "NAZIV": "INA", "ADRESA": "SLAVONSKA AVENIJA 6B" }, "geometry": { "type": "Point", "coordinates": [ 16.008232929614945, 45.795933086972063 ] } },
{ "type": "Feature", "properties": { "OBJECTID_1": 21, "OBJECTID": 21, "NAZIV": "INA", "ADRESA": "AVENIJA MARINA DRŽIĆA 100" }, "geometry": { "type": "Point", "coordinates": [ 16.003787525637001, 45.7883164333712 ] } },
{ "type": "Feature", "properties": { "OBJECTID_1": 22, "OBJECTID": 22, "NAZIV": "INA", "ADRESA": "AVENIJA MARINA DRŽIĆA 91" }, "geometry": { "type": "Point", "coordinates": [ 16.004977493626509, 45.788867991592156 ] } },
{ "type": "Feature", "properties": { "OBJECTID_1": 23, "OBJECTID": 23, "NAZIV": "INA", "ADRESA": "ULICA GRADA VUKOVARA 45" }, "geometry": { "type": "Point", "coordinates": [ 15.983461216878293, 45.80070021881599 ] } },
{ "type": "Feature", "properties": { "OBJECTID_1": 24, "OBJECTID": 24, "NAZIV": "INA", "ADRESA": "MIRAMARSKA CESTA 25" }, "geometry": { "type": "Point", "coordinates": [ 15.974773666115276, 45.801698085252589 ] } },
{ "type": "Feature", "properties": { "OBJECTID_1": 25, "OBJECTID": 25, "NAZIV": "INA", "ADRESA": "ULICA VATROSLAVA JAGIĆA 31A" }, "geometry": { "type": "Point", "coordinates": [ 15.960542585476336, 45.808502677290512 ] } },
{ "type": "Feature", "properties": { "OBJECTID_1": 26, "OBJECTID": 26, "NAZIV": "INA", "ADRESA": "ULICA BOŽIDARA ADŽIJE 7B" }, "geometry": { "type": "Point", "coordinates": [ 15.96048282615536, 45.806714251424438 ] } },
{ "type": "Feature", "properties": { "OBJECTID_1": 27, "OBJECTID": 27, "NAZIV": "INA", "ADRESA": "ULICA SILVIJA STRAHIMIRA KRANJČEVIĆA 6A" }, "geometry": { "type": "Point", "coordinates": [ 15.959591756770855, 45.803802384764595 ] } },
{ "type": "Feature", "properties": { "OBJECTID_1": 28, "OBJECTID": 28, "NAZIV": "INA", "ADRESA": "NOVA CESTA 102" }, "geometry": { "type": "Point", "coordinates": [ 15.955625552901017, 45.799841772987079 ] } },
{ "type": "Feature", "properties": { "OBJECTID_1": 29, "OBJECTID": 29, "NAZIV": "INA", "ADRESA": "SELSKA CESTA 131" }, "geometry": { "type": "Point", "coordinates": [ 15.943224397329496, 45.799709391322558 ] } },
{ "type": "Feature", "properties": { "OBJECTID_1": 30, "OBJECTID": 30, "NAZIV": "INA", "ADRESA": "ZAGREBAČKA AVENIJA 5C" }, "geometry": { "type": "Point", "coordinates": [ 15.925589976783003, 45.794445060394871 ] } },
{ "type": "Feature", "properties": { "OBJECTID_1": 31, "OBJECTID": 31, "NAZIV": "INA", "ADRESA": "ZAGREBAČKA AVENIJA 90" }, "geometry": { "type": "Point", "coordinates": [ 15.917571193536704, 45.795744246295563 ] } },
{ "type": "Feature", "properties": { "OBJECTID_1": 32, "OBJECTID": 32, "NAZIV": "INA", "ADRESA": "ZAGREBAČKA CESTA 199" }, "geometry": { "type": "Point", "coordinates": [ 15.914907387458664, 45.800545204938686 ] } },
{ "type": "Feature", "properties": { "OBJECTID_1": 33, "OBJECTID": 33, "NAZIV": "INA", "ADRESA": "ZAGREBAČKA AVENIJA 102" }, "geometry": { "type": "Point", "coordinates": [ 15.897132812489794, 45.797285343048237 ] } },
{ "type": "Feature", "properties": { "OBJECTID_1": 34, "OBJECTID": 34, "NAZIV": "INA", "ADRESA": "LUČKO 82" }, "geometry": { "type": "Point", "coordinates": [ 15.877347089384115, 45.774894703969096 ] } },
{ "type": "Feature", "properties": { "OBJECTID_1": 35, "OBJECTID": 35, "NAZIV": "INA", "ADRESA": "LUČKO 78" }, "geometry": { "type": "Point", "coordinates": [ 15.881772886795403, 45.77413803565031 ] } },
{ "type": "Feature", "properties": { "OBJECTID_1": 36, "OBJECTID": 36, "NAZIV": "INA", "ADRESA": "JADRANSKA AVENIJA 3" }, "geometry": { "type": "Point", "coordinates": [ 15.936895909589134, 45.77060308464818 ] } },
{ "type": "Feature", "properties": { "OBJECTID_1": 37, "OBJECTID": 37, "NAZIV": "INA", "ADRESA": "JADRANSKA AVENIJA 4" }, "geometry": { "type": "Point", "coordinates": [ 15.936103548151515, 45.771523936276523 ] } },
{ "type": "Feature", "properties": { "OBJECTID_1": 38, "OBJECTID": 38, "NAZIV": "INA", "ADRESA": "SIGET 2" }, "geometry": { "type": "Point", "coordinates": [ 15.971296332353797, 45.776809352855281 ] } },
{ "type": "Feature", "properties": { "OBJECTID_1": 39, "OBJECTID": 39, "NAZIV": "INA", "ADRESA": "AVENIJA DUBROVNIK 25" }, "geometry": { "type": "Point", "coordinates": [ 15.998515432181234, 45.778447383873221 ] } },
{ "type": "Feature", "properties": { "OBJECTID_1": 40, "OBJECTID": 40, "NAZIV": "INA", "ADRESA": "ULICA SAVEZNE REPUBLIKE NJEMAČKE 1A" }, "geometry": { "type": "Point", "coordinates": [ 15.991213263615794, 45.769733480691137 ] } },
{ "type": "Feature", "properties": { "OBJECTID_1": 41, "OBJECTID": 41, "NAZIV": "INA", "ADRESA": "ULICA SAVEZNE REPUBLIKE NJEMAČKE 12" }, "geometry": { "type": "Point", "coordinates": [ 15.990663607495216, 45.769390838260549 ] } },
{ "type": "Feature", "properties": { "OBJECTID_1": 42, "OBJECTID": 42, "NAZIV": "TIFON", "ADRESA": "LJUBLJANSKA AVENIJA 10" }, "geometry": { "type": "Point", "coordinates": [ 15.865897958432965, 45.797107196819454 ] } },
{ "type": "Feature", "properties": { "OBJECTID_1": 43, "OBJECTID": 43, "NAZIV": "TIFON", "ADRESA": "HORVAĆANSKA CESTA 71" }, "geometry": { "type": "Point", "coordinates": [ 15.924426274435522, 45.788534336279113 ] } },
{ "type": "Feature", "properties": { "OBJECTID_1": 44, "OBJECTID": 44, "NAZIV": "TIFON", "ADRESA": "KARLOVAČKA CESTA 88" }, "geometry": { "type": "Point", "coordinates": [ 15.901764565185257, 45.759044981704456 ] } },
{ "type": "Feature", "properties": { "OBJECTID_1": 45, "OBJECTID": 45, "NAZIV": "TIFON", "ADRESA": "BREZOVIČKA CESTA 122B" }, "geometry": { "type": "Point", "coordinates": [ 15.90115398530375, 45.71889978067162 ] } },
{ "type": "Feature", "properties": { "OBJECTID_1": 46, "OBJECTID": 46, "NAZIV": "TIFON", "ADRESA": "BANEKI 18" }, "geometry": { "type": "Point", "coordinates": [ 15.991341110097379, 45.749261275389983 ] } },
{ "type": "Feature", "properties": { "OBJECTID_1": 47, "OBJECTID": 47, "NAZIV": "TIFON", "ADRESA": "SLAVONSKA AVENIJA 110" }, "geometry": { "type": "Point", "coordinates": [ 16.114478286225818, 45.8033456215896 ] } },
{ "type": "Feature", "properties": { "OBJECTID_1": 48, "OBJECTID": 48, "NAZIV": "CRODUX", "ADRESA": "SAMOBORSKA CESTA 145A" }, "geometry": { "type": "Point", "coordinates": [ 15.862121245545586, 45.811995160572586 ] } },
{ "type": "Feature", "properties": { "OBJECTID_1": 49, "OBJECTID": 49, "NAZIV": "CRODUX", "ADRESA": "ZAGREBAČKA AVENIJA 9" }, "geometry": { "type": "Point", "coordinates": [ 15.909762052286112, 45.795800549587021 ] } },
{ "type": "Feature", "properties": { "OBJECTID_1": 50, "OBJECTID": 50, "NAZIV": "CRODUX", "ADRESA": "SLAVONSKA AVENIJA 8" }, "geometry": { "type": "Point", "coordinates": [ 16.012458102227697, 45.795859382167933 ] } },
{ "type": "Feature", "properties": { "OBJECTID_1": 51, "OBJECTID": 51, "NAZIV": "CRODUX", "ADRESA": "SLAVONSKA AVENIJA 1\/1" }, "geometry": { "type": "Point", "coordinates": [ 16.009472869859909, 45.796544270379613 ] } },
{ "type": "Feature", "properties": { "OBJECTID_1": 52, "OBJECTID": 52, "NAZIV": "CRODUX", "ADRESA": "SLAVONSKA AVENIJA 11C" }, "geometry": { "type": "Point", "coordinates": [ 16.054475664773996, 45.801450719030946 ] } },
{ "type": "Feature", "properties": { "OBJECTID_1": 53, "OBJECTID": 53, "NAZIV": "CRODUX", "ADRESA": "SLAVONSKA AVENIJA 61" }, "geometry": { "type": "Point", "coordinates": [ 16.109150860740577, 45.80574560592899 ] } },
{ "type": "Feature", "properties": { "OBJECTID_1": 54, "OBJECTID": 54, "NAZIV": "CRODUX", "ADRESA": "ULICA LJUDEVITA POSAVSKOG 7" }, "geometry": { "type": "Point", "coordinates": [ 16.10209401434809, 45.819239688138012 ] } },
{ "type": "Feature", "properties": { "OBJECTID_1": 55, "OBJECTID": 55, "NAZIV": "CRODUX", "ADRESA": "ULICA LJUDEVITA POSAVSKOG 4" }, "geometry": { "type": "Point", "coordinates": [ 16.100266587987491, 45.823426588389658 ] } },
{ "type": "Feature", "properties": { "OBJECTID_1": 56, "OBJECTID": 56, "NAZIV": "CRODUX", "ADRESA": "KOBILJAČKA CESTA 11" }, "geometry": { "type": "Point", "coordinates": [ 16.150542021146236, 45.824897333107465 ] } },
{ "type": "Feature", "properties": { "OBJECTID_1": 57, "OBJECTID": 57, "NAZIV": "CRODUX", "ADRESA": "LAKTEČKA CESTA 12" }, "geometry": { "type": "Point", "coordinates": [ 16.19217892554618, 45.868951625931359 ] } },
{ "type": "Feature", "properties": { "OBJECTID_1": 58, "OBJECTID": 58, "NAZIV": "CRODUX", "ADRESA": "LAKTEČKA CESTA 10" }, "geometry": { "type": "Point", "coordinates": [ 16.192600088898878, 45.870279364603753 ] } },
{ "type": "Feature", "properties": { "OBJECTID_1": 59, "OBJECTID": 59, "NAZIV": "CRODUX", "ADRESA": "ULICA KNEZA BRANIMIRA 103A" }, "geometry": { "type": "Point", "coordinates": [ 16.0254571306921, 45.814776364365997 ] } },
{ "type": "Feature", "properties": { "OBJECTID_1": 60, "OBJECTID": 60, "NAZIV": "CRODUX", "ADRESA": "AVENIJA VEĆESLAVA HOLJEVCA 30" }, "geometry": { "type": "Point", "coordinates": [ 15.980341693506423, 45.768855566822019 ] } },
{ "type": "Feature", "properties": { "OBJECTID_1": 61, "OBJECTID": 61, "NAZIV": "CRODUX", "ADRESA": "JADRANSKA AVENIJA 11" }, "geometry": { "type": "Point", "coordinates": [ 15.928477380225543, 45.767916687268794 ] } },
{ "type": "Feature", "properties": { "OBJECTID_1": 62, "OBJECTID": 62, "NAZIV": "CRODUX", "ADRESA": "KARLOVAČKA CESTA 221" }, "geometry": { "type": "Point", "coordinates": [ 15.899745389525741, 45.76046897436607 ] } },
{ "type": "Feature", "properties": { "OBJECTID_1": 63, "OBJECTID": 63, "NAZIV": "CRODUX", "ADRESA": "NADINSKA ULICA 25" }, "geometry": { "type": "Point", "coordinates": [ 16.01369177939057, 45.734352786586726 ] } },
{ "type": "Feature", "properties": { "OBJECTID_1": 64, "OBJECTID": 64, "NAZIV": "PETROL", "ADRESA": "SAMOBORSKA CESTA 225" }, "geometry": { "type": "Point", "coordinates": [ 15.844411495505224, 45.814667409205924 ] } },
{ "type": "Feature", "properties": { "OBJECTID_1": 65, "OBJECTID": 65, "NAZIV": "PETROL", "ADRESA": "ULICA VELIMIRA ŠKORPIKA 18" }, "geometry": { "type": "Point", "coordinates": [ 15.85874299049358, 45.808013245960858 ] } },
{ "type": "Feature", "properties": { "OBJECTID_1": 66, "OBJECTID": 66, "NAZIV": "PETROL", "ADRESA": "ZAGREBAČKA CESTA 168" }, "geometry": { "type": "Point", "coordinates": [ 15.919034526777189, 45.803546441616909 ] } },
{ "type": "Feature", "properties": { "OBJECTID_1": 67, "OBJECTID": 67, "NAZIV": "PETROL", "ADRESA": "ULICA KNEZA BRANIMIRA 117" }, "geometry": { "type": "Point", "coordinates": [ 16.034711319917434, 45.816437220691178 ] } },
{ "type": "Feature", "properties": { "OBJECTID_1": 68, "OBJECTID": 68, "NAZIV": "PETROL", "ADRESA": "ULICA KNEZA BRANIMIRA 10A" }, "geometry": { "type": "Point", "coordinates": [ 16.040188840366298, 45.817226012041722 ] } },
{ "type": "Feature", "properties": { "OBJECTID_1": 69, "OBJECTID": 69, "NAZIV": "PETROL", "ADRESA": "ULICA KNEZA BRANIMIRA 121" }, "geometry": { "type": "Point", "coordinates": [ 16.057958653655373, 45.8203764178702 ] } },
{ "type": "Feature", "properties": { "OBJECTID_1": 70, "OBJECTID": 70, "NAZIV": "PETROL", "ADRESA": "DUBRAVA 62" }, "geometry": { "type": "Point", "coordinates": [ 16.045151879709607, 45.826239628005268 ] } },
{ "type": "Feature", "properties": { "OBJECTID_1": 71, "OBJECTID": 71, "NAZIV": "PETROL", "ADRESA": "SESVETSKA CESTA 49" }, "geometry": { "type": "Point", "coordinates": [ 16.131468413559375, 45.823951181799899 ] } },
{ "type": "Feature", "properties": { "OBJECTID_1": 72, "OBJECTID": 72, "NAZIV": "PETROL", "ADRESA": "SLAVONSKA AVENIJA 51" }, "geometry": { "type": "Point", "coordinates": [ 16.096946003502289, 45.806714365918502 ] } },
{ "type": "Feature", "properties": { "OBJECTID_1": 73, "OBJECTID": 73, "NAZIV": "PETROL", "ADRESA": "ČULINEČKA CESTA 255" }, "geometry": { "type": "Point", "coordinates": [ 16.07560223855376, 45.803049995599572 ] } },
{ "type": "Feature", "properties": { "OBJECTID_1": 74, "OBJECTID": 74, "NAZIV": "PETROL", "ADRESA": "REMETINEČKA CESTA 151" }, "geometry": { "type": "Point", "coordinates": [ 15.950014287235188, 45.768978732156285 ] } },
{ "type": "Feature", "properties": { "OBJECTID_1": 75, "OBJECTID": 75, "NAZIV": "PETROL", "ADRESA": "SISAČKA CESTA 2" }, "geometry": { "type": "Point", "coordinates": [ 15.947405207825483, 45.756440161953002 ] } },
{ "type": "Feature", "properties": { "OBJECTID_1": 76, "OBJECTID": 76, "NAZIV": "PETROL", "ADRESA": "AVENIJA VEĆESLAVA HOLJEVCA 42A" }, "geometry": { "type": "Point", "coordinates": [ 15.981534361649469, 45.761227339641863 ] } },
{ "type": "Feature", "properties": { "OBJECTID_1": 77, "OBJECTID": 77, "NAZIV": "LUKOIL", "ADRESA": "ALEJA GRADA BOLONJE 76" }, "geometry": { "type": "Point", "coordinates": [ 15.85273056882634, 45.814967467404557 ] } },
{ "type": "Feature", "properties": { "OBJECTID_1": 78, "OBJECTID": 78, "NAZIV": "LUKOIL", "ADRESA": "ILICA 437" }, "geometry": { "type": "Point", "coordinates": [ 15.901139873482943, 45.812425542800078 ] } },
{ "type": "Feature", "properties": { "OBJECTID_1": 79, "OBJECTID": 79, "NAZIV": "LUKOIL", "ADRESA": "ZAGREBAČKA AVENIJA 11" }, "geometry": { "type": "Point", "coordinates": [ 15.895154398109506, 45.796756257046759 ] } },
{ "type": "Feature", "properties": { "OBJECTID_1": 80, "OBJECTID": 80, "NAZIV": "LUKOIL", "ADRESA": "ZAGORSKA ULICA 10" }, "geometry": { "type": "Point", "coordinates": [ 15.945013624042236, 45.8074777521146 ] } },
{ "type": "Feature", "properties": { "OBJECTID_1": 81, "OBJECTID": 81, "NAZIV": "LUKOIL", "ADRESA": "ULICA RUDOLFA KOLAKA 1" }, "geometry": { "type": "Point", "coordinates": [ 16.045972596495623, 45.837249373954698 ] } },
{ "type": "Feature", "properties": { "OBJECTID_1": 82, "OBJECTID": 82, "NAZIV": "LUKOIL", "ADRESA": "ZAGREBAČKA CESTA 59" }, "geometry": { "type": "Point", "coordinates": [ 16.095317442351199, 45.826821087590979 ] } },
{ "type": "Feature", "properties": { "OBJECTID_1": 83, "OBJECTID": 83, "NAZIV": "LUKOIL", "ADRESA": "RADNIČKA CESTA 212A" }, "geometry": { "type": "Point", "coordinates": [ 16.034870898730517, 45.787888347311295 ] } },
{ "type": "Feature", "properties": { "OBJECTID_1": 84, "OBJECTID": 84, "NAZIV": "LUKOIL", "ADRESA": "RADNIČKA CESTA 228" }, "geometry": { "type": "Point", "coordinates": [ 16.053444674510072, 45.778745566333527 ] } },
{ "type": "Feature", "properties": { "OBJECTID_1": 85, "OBJECTID": 85, "NAZIV": "LUKOIL", "ADRESA": "RADNIČKA CESTA 175" }, "geometry": { "type": "Point", "coordinates": [ 16.055332776775856, 45.778574245072065 ] } },
{ "type": "Feature", "properties": { "OBJECTID_1": 86, "OBJECTID": 86, "NAZIV": "LUKOIL", "ADRESA": "AVENIJA DUBROVNIK 7" }, "geometry": { "type": "Point", "coordinates": [ 15.96244582965778, 45.777315443880291 ] } },
{ "type": "Feature", "properties": { "OBJECTID_1": 87, "OBJECTID": 87, "NAZIV": "LUKOIL", "ADRESA": "REMETINEČKA CESTA 100A" }, "geometry": { "type": "Point", "coordinates": [ 15.951831410427427, 45.772907729744269 ] } },
{ "type": "Feature", "properties": { "OBJECTID_1": 88, "OBJECTID": 88, "NAZIV": "ADRIA OIL", "ADRESA": "ULICA VELIMIRA ŠKORPIKA 10A" }, "geometry": { "type": "Point", "coordinates": [ 15.859472067414135, 45.811117939925794 ] } },
{ "type": "Feature", "properties": { "OBJECTID_1": 89, "OBJECTID": 89, "NAZIV": "PLINSKI CENTAR ZAGREB", "ADRESA": "SAMOBORSKA CESTA 222" }, "geometry": { "type": "Point", "coordinates": [ 15.867418277382425, 45.812168472738769 ] } },
{ "type": "Feature", "properties": { "OBJECTID_1": 90, "OBJECTID": 90, "NAZIV": "CRODIESEL", "ADRESA": "KERESTINEČKA 129A" }, "geometry": { "type": "Point", "coordinates": [ 15.828072602221413, 45.778797123500155 ] } },
{ "type": "Feature", "properties": { "OBJECTID_1": 91, "OBJECTID": 91, "NAZIV": "ZAGREBAČKI PROMETNI ZAVOD", "ADRESA": "LJUBLJANSKA AVENIJA 1" }, "geometry": { "type": "Point", "coordinates": [ 15.891780091649403, 45.796256551397036 ] } },
{ "type": "Feature", "properties": { "OBJECTID_1": 92, "OBJECTID": 92, "NAZIV": "AGS HRVATSKA", "ADRESA": "ZAGREBAČKA AVENIJA 100B" }, "geometry": { "type": "Point", "coordinates": [ 15.89813285648933, 45.797450791898548 ] } },
{ "type": "Feature", "properties": { "OBJECTID_1": 93, "OBJECTID": 93, "NAZIV": "ZAGREBAČKI PROMETNI ZAVOD", "ADRESA": "ZAGREBAČKA AVENIJA 96" }, "geometry": { "type": "Point", "coordinates": [ 15.902976486620899, 45.797018508099853 ] } },
{ "type": "Feature", "properties": { "OBJECTID_1": 94, "OBJECTID": 94, "NAZIV": "KONZUM PLUS", "ADRESA": "ULICA GRADA VUKOVARA 275" }, "geometry": { "type": "Point", "coordinates": [ 16.013274903821806, 45.803267409885329 ] } },
{ "type": "Feature", "properties": { "OBJECTID_1": 95, "OBJECTID": 95, "NAZIV": "AUTO PLIN", "ADRESA": "ČULINEČKA CESTA 248" }, "geometry": { "type": "Point", "coordinates": [ 16.07483588255419, 45.8021854692294 ] } },
{ "type": "Feature", "properties": { "OBJECTID_1": 96, "OBJECTID": 96, "NAZIV": "PLINKA-PUH", "ADRESA": "I. RESNIK 6" }, "geometry": { "type": "Point", "coordinates": [ 16.074921344518881, 45.804257781187495 ] } },
{ "type": "Feature", "properties": { "OBJECTID_1": 97, "OBJECTID": 97, "NAZIV": "AUTO PLIN", "ADRESA": "I. RESNIČKI GAJ 18" }, "geometry": { "type": "Point", "coordinates": [ 16.066773278471473, 45.810244821631855 ] } },
{ "type": "Feature", "properties": { "OBJECTID_1": 98, "OBJECTID": 98, "NAZIV": "APIOS", "ADRESA": "ZAGREBAČKA CESTA 162" }, "geometry": { "type": "Point", "coordinates": [ 16.082249784155842, 45.827046910358739 ] } },
{ "type": "Feature", "properties": { "OBJECTID_1": 99, "OBJECTID": 99, "NAZIV": "AGS HRVATSKA", "ADRESA": "ZAGREBAČKA CESTA 34" }, "geometry": { "type": "Point", "coordinates": [ 16.10012182575219, 45.828510596239539 ] } },
{ "type": "Feature", "properties": { "OBJECTID_1": 100, "OBJECTID": 100, "NAZIV": "KONZUM PLUS", "ADRESA": "BJELOVARSKA ULICA 48B" }, "geometry": { "type": "Point", "coordinates": [ 16.1185451008296, 45.82427753532059 ] } },
{ "type": "Feature", "properties": { "OBJECTID_1": 101, "OBJECTID": 101, "NAZIV": "AGS HRVATSKA", "ADRESA": "KOBILJAČKA CESTA 102" }, "geometry": { "type": "Point", "coordinates": [ 16.163152855786752, 45.820479121632495 ] } },
{ "type": "Feature", "properties": { "OBJECTID_1": 102, "OBJECTID": 102, "NAZIV": "GALIĆ-BENZ", "ADRESA": "SOBLINEČKA ULICA 46" }, "geometry": { "type": "Point", "coordinates": [ 16.151955056222306, 45.861730900405149 ] } },
{ "type": "Feature", "properties": { "OBJECTID_1": 103, "OBJECTID": 103, "NAZIV": "VUGIP", "ADRESA": "CESTA IVANA MAŽURANIĆA 110" }, "geometry": { "type": "Point", "coordinates": [ 16.123451174361144, 45.915546705890449 ] } },
{ "type": "Feature", "properties": { "OBJECTID_1": 104, "OBJECTID": 104, "NAZIV": "ŠIMA", "ADRESA": "ŠTEFANOVEC 40" }, "geometry": { "type": "Point", "coordinates": [ 16.023836860114859, 45.859860464223011 ] } },
{ "type": "Feature", "properties": { "OBJECTID_1": 105, "OBJECTID": 105, "NAZIV": "NOVAK-BENZ", "ADRESA": "AVENIJA VEĆESLAVA HOLJEVCA 53 (BANI ODVOJAK 1)" }, "geometry": { "type": "Point", "coordinates": [ 16.000648486511317, 45.742616537647592 ] } },
{ "type": "Feature", "properties": { "OBJECTID_1": 106, "OBJECTID": 106, "NAZIV": "EURO BENZ", "ADRESA": "ULICA DR. LUJE NALETILIĆA 94A" }, "geometry": { "type": "Point", "coordinates": [ 15.932316743749681, 45.740449225408007 ] } },
{ "type": "Feature", "properties": { "OBJECTID_1": 107, "OBJECTID": 107, "NAZIV": "MARP-PROMET", "ADRESA": "OBREŠKA CESTA 119" }, "geometry": { "type": "Point", "coordinates": [ 15.942473473417994, 45.715828744320106 ] } }
]
}
